{
	"黃埔": [{
			"name": "米気 Mai Hei",
			"type": "日本菜🍛",
			"district": "黃埔",
			"address": "紅磡黃埔天地百寶坊(第3期)地下G32號舖",
			"image": "https://static6.orstatic.com/userphoto2/photo/17/Y6L/06R2XLD9480B43DB7FB21Bpx.jpg",
			"Popularity": 100,
			"lat": 22.310927391349065,
			"lng": 114.18648996013927,
			"Intro": "米気 Mai Hei 是一家位於香港的精緻日式餐廳，提供正宗的日本料理。餐廳的裝潢以和風為主題，環境優雅、舒適，讓客人在用餐時能夠感受到濃厚的日本文化氛圍。米気 Mai Hei 的菜品以優質的食材和經驗豐富的廚師製作而成，包括刺身、壽司等多種日本料理，每一道菜都展現出獨特的日本風味和精湛的廚藝。此外，米気 Mai Hei 的服務也非常出色，店員經驗豐富且熱情友好，讓每一位客人都能夠享受到最好的用餐體驗。如果你想品嚐正宗的日本料理，米気 Mai Hei 絕對是一個值得一試的好去處。",
			"priceRange": "$80-200"
		},
		{
			"name": "祥榮餐廳 Cheung Wing Restaurant",
			"type": "港式 茶餐廳/冰室🍛",
			"district": "黃埔",
			"address": "紅磡黃埔天地奇妙坊(第1期)地下G7A, 7B 及7D號舖",
			"image": "https://static6.orstatic.com/userphoto2/photo/23/1NZ7/0BUIDT40E74D19D8349D60px.jpg",
			"Popularity": 50,
			"lat": 22.30527292746428,
			"lng": 114.1877487531837,
			"Intro": "祥榮餐廳是一家位於香港黃埔的茶餐廳，提供傳統的港式飲茶和茶餐廳美食。餐廳的裝潢簡潔大方，氣氛溫馨舒適，是一個適合家庭和朋友聚會的用餐地點。祥榮餐廳的菜品選擇豐富，包括傳統的港式點心、燒味、粥品、沙律等。其中著名的菜品包括鮮蝦腸粉、叉燒包、燒賣等。餐廳採用優質的食材和經驗豐富的廚師，確保每一道菜都能夠保持最高的品質和口感。此外，祥榮餐廳的價格也非常實惠，是一個非常受歡迎的用餐選擇。如果你想體驗正宗的港式茶餐廳美食，祥榮餐廳絕對是一個值得一試的好去處。",
			"priceRange": "$51-100"

		},
		{
			"name": "SUKIYA すき家",
			"type": "日本菜🍚",
			"district": "黃埔",
			"address": "紅磡黃埔天地時尚坊(第2期)地下G6B號舖",
			"image": "https://static5.orstatic.com/userphoto2/photo/1C/11Y8/07HVDKC424C8AE44DD4FD4px.jpg",
			"Popularity": 70,
			"lat": 22.30490519249742,
			"lng": 114.19001500872805,
			"Intro": "SUKIYA すき家是一家日本連鎖快餐店，以提供美味且價格實惠的日式牛肉飯聞名。SUKIYA すき家的菜單提供多種口味的牛肉飯、咖喱飯、炸豬排定食等日本傳統快餐，並且還有各式各樣的配菜可供選擇，例如味噌湯、沙拉、茶碗蒸、炸豆腐等。不僅如此，SUKIYA すき家的價格也非常實惠，且店內環境整潔舒適，是許多上班族和學生的經濟實惠用餐首選。此外，SUKIYA すき家的服務也非常迅速和友好，讓客人能夠在短時間內享用美味的日式快餐。如果你正在尋找美味且價格實惠的快餐，SUKIYA すき家絕對是一個值得一試的好去處。",
			"priceRange": "$51-100"

		},
		{
			"name": "薩莉亞意式餐廳 (黃埔天地百寶坊) Saizeriya Italian Restaurant",
			"type": "意大利菜🥩",
			"district": "黃埔",
			"address": "紅磡黃埔天地百寶坊(第3期)地下G21-23號舖",
			"image": "https://static6.orstatic.com/userphoto/photo/8/6R7/01C1HX8912B1A92D42A1B6px.jpg",
			"Popularity": 36,
			"lat": 22.305138542125242,
			"lng": 114.18709870189247,
			"Intro": "薩莉亞意式餐廳是一家位於香港的精緻意大利餐廳，提供正宗的意大利美食。餐廳的裝潢優雅大方，氣氛溫馨舒適，是一個適合情侶約會和商務宴客的用餐地點。薩莉亞意式餐廳的菜品以優質的食材和經驗豐富的廚師製作而成，包括各式各樣的意大利面食、披薩、海鮮和肉類等。其中著名的菜品包括意大利傳統的義大利麵、炭烤牛肉、燉飯等。餐廳的酒單也非常豐富，提供多款優質的紅酒、白酒和氣泡酒，讓客人能夠享受到最佳的用餐體驗。此外，薩莉亞意式餐廳的服務也非常出色，店員熱情友好，讓每一位客人都能夠感受到賓至如歸的待遇。如果你想品嚐正宗的意大利美食，薩莉亞意式餐廳絕對是一個值得一試的好去處。",
			"priceRange": "$40-70"

		},
		{
			"name": "快樂蜂 (黃埔天地) Jollibee (The Whampoa)",
			"type": "快餐店🍔",
			"district": "黃埔",
			"address": "紅磡黃埔天地百寶坊(第3期)地下G1B號舖",
			"image": "https://static8.orstatic.com/userphoto2/photo/1B/11VY/07HFCR9511D72B54EF002Cpx.jpg",
			"Popularity": 69,
			"lat": 22.305138542125242,
			"lng": 114.18709870189247,
			"Intro": "提供多種中西式快餐，包括漢堡、炸雞等等。快樂蜂的食品質量和口味得到了不少消費者的好評，並且價格實惠，獨特醬汁的意粉，及自家製醬汁漢堡包是令顧客喜出望外的美食。是不少上班族和學生的用餐首選。",
			"priceRange": "$40-90"
		}
	],
	"中西區": [{
			"name": "蘭芳園",
			"type": "港式茶餐廳🍛",
			"district": "中西區",
			"address": "中環結志街2號",
			"image": "https://cfcdn2.azsg.opensnap.com/azsg/snapphoto/photo/L8/GRZB/3BAZ4151ECF19EB75F6A7Dlv.jpg",
			"Popularity": 69,
			"lat": 22.283384199672472,
			"lng": 114.15364080386162,
			"Intro": "蘭芳園作為香港老字號茶記,開業已有57年,價格便宜。傳統茶餐廳美食，如多士、三文治、奶油豬仔包、豬扒包、番茄薯仔湯通粉,公仔麵等等一樣不漏,奶茶不但不會太濃，還會有淡淡的茶香，入口順滑,是遊客體驗茶餐廳的不二之選,更是本地人可以回憶童年的味道",
			"priceRange": "$25-70"
		},
		{
			"name": "上環熟食中心",
			"type": "港式茶餐廳🍛",
			"district": "上環",
			"address": "上環皇后大道中345號上環市政大廈",
			"image": "https://static6.orstatic.com/userphoto/photo/6/4VJ/00YOA98208D7749F0DC786px.jpg",
			"Popularity": 70,
			"lat": 22.28687867239957,
			"lng": 114.14955445950686,
			"Intro": "上環熟食中心不少店舖歷史悠久，真材實料加上紮實的廚藝,令人口水直流的豬扒飯入口鬆軟度適中，油而不膩,味道香口惹味。用來燴意、配公仔麵，或者做咖哩雞扒飯都有水準,奶茶咖啡絲滑香口。整體衛生不錯,服務人員談話間充滿街坊情。",
			"priceRange": "$30-60"
		},
		{
			"name": "瘋狂小面",
			"type": "中菜館🍚",
			"district": "中西區",
			"address": "中環士丹利街66-72號佳德商業大廈1樓",
			"image": "https://static7.orstatic.com/userphoto/photo/K/GKX/039WW66B31C599C25E76B3px.jpg",
			"Popularity": 31,
			"lat": 22.28457550700586,
			"lng": 114.15431116522873,
			"Intro": "餐廳環境寬敞，在不少細節上加入了中國風。主打傳統重慶小麵，麵上加入花生米、豌豆醬、青蔥等佐料，再拌以辣椒油，十分惹味。亦提供缽缽雞、四川冰粉等正宗四川菜。在細嘗四川重慶菜帶來的酸辣後亦有小菜給你降降溫。",
			"priceRange": "$50-200"
		},
		{
			"name": "Bistro Breton by La Creperie",
			"type": "西餐🥩",
			"district": "中西區",
			"address": "西環西營盤德輔道西321號瑧璈地下3號舖",
			"image": "https://static6.orstatic.com/userphoto2/photo/1S/1F0X/0A2UO548C565806EB72F11px.jpg",
			"Popularity": 33,
			"lat": 22.28940033576984,
			"lng": 114.139217891236,
			"Intro": "以法式小酒館為概念，供應各式魚類和海鮮，另外法式可麗餅設有鹹甜口味,出菜速度會因顧客而有所調整。店內以不同風格的海洋主題畫作作裝飾，處處也洋溢藝術氣息,令人在放鬆之餘更能陶冶性情。",
			"priceRange": "$200-400"
		},
		{
			"name": "川之源",
			"type": "中菜館🍚",
			"district": "上環",
			"address": "西環西營盤正街62號地舖",
			"image": "https://static7.orstatic.com/userphoto2/photo/1F/152J/08421I112363348FA16BEFpx.jpg",
			"Popularity": 54,
			"lat": 22.28647608512263,
			"lng": 114.14161296738556,
			"Intro": "主打川菜，菜式辣度有辣有不辣，同時亦有素食提供，照顧不同人士需要。推介酸菜桂花魚及川式回鍋肉,在擺盤亦為美食增添幾分姿色。",
			"priceRange": "$100-200"
		}
	],

	"東區": [{
			"name": "Dodam Chicken",
			"type": "韓式料理🥘",
			"district": "東區",
			"address": "銅鑼灣波斯富街99號利舞臺廣場18樓A號舖",
			"image": "https://www.discoverhongkong.com/content/dam/dhk/merchants/images/en/704/70400/25056_1.jpg",
			"Popularity": 71,
			"lat": 22.27830203557521,
			"lng": 114.18314382420192,
			"Intro": "地道口味的韓國炸雞專門店，招牌菜有各款韓式烤焗雞及招牌薄餅。餐廳亦提供各種不同餐點，如芝士火鍋雞，韓式炒年糕，韓國煎餅，薄餅，韓式湯料理等等。會為生日仔提供額外服務。",
			"priceRange": "$101-200"
		},
		{
			"name": "滷府",
			"type": "中菜館🍚",
			"district": "東區",
			"address": "鰂魚涌海光街7-9號龍景大廈地下5C號舖",
			"image": "https://cdn.collection.news/cdn-cgi/image/fit=scale-down,width=640,metadata=none,onerror=redirect,f=auto/appledaily/6HAGI6XINJCLFFVMPN2BF4PWDM.JPG",
			"Popularity": 50,
			"lat": 22.288300069825702,
			"lng": 114.21104097057386,
			"Intro": "可當街邊小食亦可當主食的滷味主題店,滷得入味 採用偏甜滷水。餐廳內的衛生不錯,服務非常地道,對不同客眾給予不同建議。",
			"priceRange": "$20-200"
		},
		{
			"name": "阿翁廚房",
			"type": "中菜館🍚",
			"district": "東區",
			"address": "筲箕灣愛民街30-50號地下14A-16A號舖鴻利大廈",
			"image": "https://static8.orstatic.com/userphoto/photo/O/J0F/03R72BC26F08BE398E3154px.jpg",
			"Popularity": 30,
			"lat": 22.277558008390994,
			"lng": 114.22690555406524,
			"Intro": "上海菜,小店風格且廚師手工出色價錢公道,款式多樣。招牌上湯小籠包皮少肉多,紅燒獅子頭 大大件燉到入曬味,濃油赤醬帶點濃重味道 咬開好似漢堡咁鬆軟有肉汁紅燒肉,環境柔和,令人賓至如歸。",
			"priceRange": "$50-150"
		},
		{
			"name": "金羅寶韓國料理",
			"type": "韓式料理🥘",
			"district": "東區",
			"address": "銅鑼灣記利佐治街1號金百利廣場6樓",
			"image": "https://resource02.ulifestyle.com.hk/ulcms/content/article/image/w600/uhk/spot/201503/20150323200711_3_10991284_849460755121341_8283390373594058241_n_(1).jpg",
			"Popularity": 21,
			"lat": 22.28055280166677,
			"lng": 114.18492926416306,
			"Intro": "餐廳主打傳統韓國烤肉，肉類以正宗韓國醬汁醃制，款式多樣，亦提供各式的韓國料理，如石鍋拌飯、韓式炸雞等。提供各種的烹調生法。",
			"priceRange": "$100 - 200"
		},
		{
			"name": "漁獲浜燒",
			"type": "日式料理🍜",
			"district": "東區",
			"address": "銅鑼灣軒尼詩道525號澳門逸園中心18樓",
			"image": "https://static6.orstatic.com/userphoto/photo/H/DRK/02PW0XBFD4ADB1070F0815px.jpg",
			"Popularity": 15,
			"lat": 22.280550975781125,
			"lng": 114.18369028465835,
			"Intro": "浜燒指將海鮮在岸邊即捕即燒，而這間餐廳亦有三組魚池，裡面有由日本新鮮運到的不同海鮮，讓食客感受日式浜燒滋味,價格偏高,但食材都是真材實料。且服務質素深受好評。",
			"priceRange": "$200-400"
		}
	],
	"南區": [{
			"name": "奧壽司",
			"type": "日式料理🍜",
			"district": "南區",
			"address": "薄扶林數碼港100號數碼港商場307號舖",
			"image": "https://4.bp.blogspot.com/-tGelDhPuVwM/Wei7eMksy8I/AAAAAAAAjNQ/IKKmZBswu9YPAPTmMHh0LyU1xwicME-dgCLcBGAs/s1600/IMG_2549.JPG",
			"popularity": 90,
			"lat": 22.26092636380767,
			"lng": 114.1299811810526,
			"Intro": "數碼港奧壽司店以優閒及和風設計為主調，日本製雲石食桌，半露天小茶座，地方開揚，舒適寬敞。食物方面款色較灣仔店多，以手握壽司及和食為主，更秘製咖喱美食，食客可自選辣度，體貼窩心，口味多元化。",
			"priceRange": "$60-200"
		},
		{
			"name": "海灣餐廳及海灣咖啡室",
			"type": "西餐🥩",
			"district": "南區",
			"address": "黃竹坑黃竹坑道180號香港海洋公園萬豪酒店海灣地下",
			"image": "https://static6.orstatic.com/userphoto2/photo/21/1LZD/0BGBH10F76F39C567C8B53px.jpg",
			"popularity": 50,
			"lat": 22.247658023876628,
			"lng": 114.17657735591261,
			"Intro": "海洋公園萬豪酒店海灣地下以西式自助餐為題,地方開闊,供應的食物種類更是令人目不暇給,前菜,主菜,海鮮,甜品多達50樣以上。",
			"priceRange": "$200-700"
		},
		{
			"name": "明園 Ming Yuen",
			"type": "中菜館🍚",
			"district": "南區",
			"address": "淺水灣大潭水塘道88號陽明山莊會所",
			"image": "https://static8.orstatic.com/userphoto2/photo/1W/1IF5/0AQZSF7DCB68893997903Dsx.jpg",
			"popularity": 85,
			"lat": 22.25751675083978,
			"lng": 114.1994402963942,
			"Intro": "廣東菜,提供海膽炒飯,上湯鮮肉小籠包,蔥油鮑片,金醬豬手粒,醬黃瓜等多種食物地方流露出中式的風韻。",
			"priceRange": "$200-400"
		},
		{
			"name": "金記冰室",
			"type": "港式茶餐廳🍛",
			"district": "南區",
			"address": "薄扶林置富南區廣場3樓318號舖",
			"image": "https://static7.orstatic.com/userphoto2/photo/U/NUY/04PO6ADB4276980CBDAAE9px.jpg",
			"popularity": 95,
			"lat": 22.257313650030074,
			"lng": 114.13893386822198,
			"Intro": "香港地道茶餐廳,常如餐式如椒鹽豬排,雪糕紅豆冰,乾炒雞扒公仔麵等都有提供,餐廳外身有船舶的特徵,特別顯眼,店內較為舒適。",
			"priceRange": "$40-80"
		},
		{
			"name": "南海小館",
			"type": "中菜館🍚",
			"district": "南區",
			"address": "黃竹坑黃竹坑道180號香港海洋公園萬豪酒店海灣地下",
			"image": "https://encrypted-tbn0.gstatic.com/images?q=tbn:ANd9GcQeppGTY_cKFAy28E_JtP6ebluTQUD2uWH_0Q&usqp=CAU",
			"popularity": 60,
			"lat": 22.24763038127787,
			"lng": 114.17642513747079,
			"Intro": "主打順德菜的中菜館，主要提供各款河鮮菜式,店內有裝飾數幅水墨畫,裝潢偏暗淡,整體較適宜。",
			"priceRange": "$100-400"
		}
	],
	"灣仔區": [{
			"name": "仙后餐廳",
			"type": "西餐🥩",
			"district": "灣仔區",
			"address": "灣仔皇后大道東213號胡忠大廈2樓",
			"image": "https://cdn.hk01.com/di/media/images/1156602/org/a334f8e78f1464151554bcd3d45f7fb1.jpg/Y4nNVWeM1cSspkUFGiuTOYoQiSqJqV-avXFICr1xSAo?v=w1920",
			"popularity": 75,
			"lat": 22.27443813466236,
			"lng": 114.17256708859802,
			"Intro": "具懷舊氣派的餐廳，重現昔日香港第一間旋轉餐廳的情懷。提供精緻法式美食，讓你一邊細味以精湛廚藝呈現的美饌，一邊感受懷舊優雅氛圍，享受不一樣的法式餐飲體驗。每天供應午餐及晚餐，周末及公眾假期提供精緻的主題下午茶套餐。",
			"priceRange": "$400-800"
		},
		{
			"name": "Five Guys",
			"type": "快餐店🍔",
			"district": "灣仔區",
			"address": "銅鑼灣羅素街8號地下及1樓",
			"image": "https://upload.wikimedia.org/wikipedia/commons/thumb/f/f2/HK_%E7%81%A3%E4%BB%94_Wan_Chai_%E8%88%B9%E8%A1%97_Ship_Street_shop_Five_Guys_fast_food_restaurant_red_sign_Saturday_February_2019_SSG_01.jpg/1280px-HK_%E7%81%A3%E4%BB%94_Wan_Chai_%E8%88%B9%E8%A1%97_Ship_Street_shop_Five_Guys_fast_food_restaurant_red_sign_Saturday_February_2019_SSG_01.jpg",
			"popularity": 80,
			"lat": 22.278739371512874,
			"lng": 114.18189534307132,
			"Intro": "FIVE GUYS 是美國地道的漢堡包店，顏色以紅/白為主，光猛又型格,主提供漢堡包,熱狗,三文治和薯條,店舖位置方便靠近車站。",
			"priceRange": "$50-150"
		},
		{
			"name": "晶晶甜品",
			"type": "甜品店🍮",
			"district": "灣仔區",
			"address": "灣仔灣仔道8號尚翹峰地下A1號舖",
			"image": "https://s.yimg.com/ny/api/res/1.2/S8VuRg_.8XI5qLdU4_M7jQ--/YXBwaWQ9aGlnaGxhbmRlcjt3PTY0MA--/https://s.yimg.com/os/creatr-uploaded-images/2022-03/e2edb610-9b93-11ec-95ed-af2e99183884",
			"popularity": 90,
			"lat": 22.274824393623376,
			"lng": 114.17388815527806,
			"Intro": "糖水不是最原教旨主义的那一派，而是在不完全脱离传统的基础上衍生出的创意,如奶茶鮮奶冰,楊枝甘露涼粉等等,而日常式糖水也有售買。",
			"priceRange": "$40-80"
		},
		{
			"name": "麗姐廚房",
			"type": "素食🥑",
			"district": "灣仔區",
			"address": "灣仔譚臣道105-111號豪富商業大廈二樓A-D室",
			"image": "https://static7.orstatic.com/userphoto2/photo/1W/1I1F/0AOA7A984370BCFFDD424Dsx.jpg",
			"popularity": 65,
			"lat": 22.27731445463747,
			"lng": 114.17398833615198,
			"Intro": "新穎素菜,如素叉燒、素咕嚕肉素魚腐冬瓜煲等等,不落味精,環境優雅,員工接待友善。食物品質高品質。",
			"priceRange": "$80-200"
		},
		{
			"name": "新景園咖喱小廚",
			"type": "港式茶餐廳🍛",
			"district": "灣仔區",
			"address": "灣仔春園街20號地舖",
			"image": "https://static5.orstatic.com/userphoto/doorphoto/0/8/0001KW6418AEDC83CD0E61lv.jpg",
			"popularity": 70,
			"lat": 22.275834330352822,
			"lng": 114.17297548997546,
			"Intro": "咖喱小廚，亦有招牌的咖喱飯座鎮，但最街知巷聞的還是這裡的乾炒牛河，平時食牛河嫌佢成碟都係油，新景園就能夠做到無油底，加上牛肉炒得入味，夠火喉，單是這樣己經值回票價,店舖裝飾古色古香,職員親切友善。",
			"priceRange": "$50-100"
		}
	],
	"九龍城區": [{
			"name": "小曼谷海鮮燒烤屋",
			"type": "泰國菜🍲",
			"popularity": 69,
			"address": "九龍城太子道西398號御太子地下1-3號舖",
			"image": "https://static5.orstatic.com/userphoto/photo/S/M9P/04ED1S3D9D5BC5BA2ABB3Fpx.jpg",
			"lat": 22.327812950309394,
			"lng": 114.18912800542888,
			"Intro": "九龍城泰菜人氣旺店，每晚八點至十一點現場音樂表演，一邊食泰菜， 一邊聽live music，一向都是小曼谷指定動作。曾獲最優秀開飯東南亞餐廳 (2016)",
			"priceRange": "$100-200"

		},
		{
			"name": "上戶酒場",
			"type": "日式料理🍜",
			"popularity": 90,
			"address": "九龍城龍崗道33-39號龍翔閣地下A號舖",
			"image": "https://ifoodcourt.com.hk/wp-content/uploads/2021/07/uedosakaba_cover.jpg",
			"lat": 22.32939836585061,
			"lng": 114.19026867210584,
			"Intro": "裝潢以木系為主，營造出傳統日式居酒屋的感覺。師傅把各式烹調技術融入日本菜，炮製創新的口味，配上多款來自日本的清酒和果酒可使用餐體驗更完美。",
			"priceRange": "$150-400"
		},
		{
			"name": "蓮花健康素食",
			"type": "素食🥑",
			"popularity": 80,
			"address": "九龍城福佬村道39號地下",
			"image": "https://static7.orstatic.com/userphoto2/photo/1A/1123/07BIVA3CB8A903CB0E181Fpx.jpg",
			"lat": 22.328729793290602,
			"lng": 114.18747260161187,
			"Intro": "提供不同素菜,如芙蓉涼瓜煎鮮竹,紫竹白玉,芝士蟹柳春卷,職員有禮貌,裝潢偏柔和。",
			"priceRange": "$100-250"
		},
		{
			"name": "Orange Elephant Thai Restaurant",
			"type": "泰國菜🍲",
			"popularity": 40,
			"address": "九龍城啟德道31-33號地舖",
			"image": "https://ifoodcourt.com.hk/wp-content/uploads/2016/11/Orange-Elephant-Thai-Restaurant.jpg",
			"lat": 22.32873093376213,
			"lng": 114.18747338577154,
			"Intro": "地道泰國菜餐廳，食物出品水準平均，齋食肉碎撈飯,雜錦串燒,冬陰功鮮蝦配湯河,經常會有$1美食作招徠。裝潢以白為美。",
			"priceRange": "$50-150"
		},
		{
			"name": "大和堂咖啡店",
			"type": "西餐🥩",
			"popularity": 55,
			"address": "九龍城衙前塱道24號地舖",
			"image": "https://www.getreadyhk.com/images/stories/blog/ying/tai-wo-tang/tai-wo-tang-10.JPG",
			"lat": 22.328603968180804,
			"lng": 114.18939335760606,
			"Intro": "餐廳由有80年歷史的「大和堂蔘茸藥行」舊建築活化而成，內外的裝修都富有歷史價值。主打西式菜餚，當中以「雞蛋仔與雞」最有噱頭，即港式雞蛋仔配炸雞，再淋上薑汁糖漿。",
			"priceRange": "$100-200"
		}
	],
	"觀塘區": [{
			"name": "玉桃軒酒家",
			"type": "酒樓🥢",
			"address": "觀塘開源道79號鱷魚恤中心6樓",
			"image": "https://2.bp.blogspot.com/-uqtaWP1wOGA/V-FVdkO-sUI/AAAAAAABZx4/aQiY2Z2P0zAFbUZ6h4aoNwHWgj3yBFHsACLcB/s640/1.JPG",
			"popularity": 43,
			"lat": 22.31157921217963,
			"lng": 114.22570017603839,
			"Intro": "日間以點心為主，晚市則主打廣東小菜，招牌菜: 蜜汁叉燒皇 / 京式片皮鴨 / 法式焗釀響螺 / 富貴飯焦上湯燴鮑翅 ,環境寬敞典雅。",
			"priceRange": "$100-200"
		},
		{
			"name": "燒肉の牛太・本陣",
			"type": "日式料理🍜",
			"address": "觀塘觀塘道418號創紀之城五期(apm)4樓22號舖",
			"image": "https://cdn.reubird.hk/large/providers/E78792E88289E381AEE7899BE5A4AAE383BBE69CACE999A3-E8A780E5A198/E78792E88289E381AEE7899BE5A4AAE383BBE69CACE999A3-E8A780E5A198-1.jpg",
			"popularity": 41,
			"lat": 22.312388916636355,
			"lng": 114.22548501735866,
			"Intro": "於1997年日本創立第一間店舖，以將最美味的燒肉，把肚子吃得滿滿作為理念，嚴選最新鮮及上乘的肉作為食材,供顧客燒烤。",
			"priceRange": "$200-400"
		},
		{
			"name": "純粹食所 that's it.",
			"type": "素食🥑",
			"address": "觀塘觀塘道436-446號觀塘工業中心四期10樓Q號舖",
			"image": "https://cdn.feehk.com/photo/static5-restaurant/userphoto2/photo/1M/19V5/0925JOA794E57F2C8806F4px.jpg",
			"popularity": 46,
			"lat": 22.31139536737234,
			"lng": 114.22687623383327,
			"Intro": "我們堅持選用純粹的食材配合不同風格的烹調技巧及天然調味料呈現味道豐富而有養份的料理服務得當,裝飾簡潔輕鬆。",
			"priceRange": "$100-200"
		},
		{
			"name": "Non Kitchen",
			"type": "西餐🥩",
			"address": "觀塘鴻圖道12精棉工業大廈1樓",
			"image": "https://static8.orstatic.com/userphoto2/photo/22/1MUT/0BMJ631264CF4A1CC41637px.jpg",
			"popularity": 40,
			"lat": 22.313729305380775,
			"lng": 114.21857375441272,
			"Intro": "環境開闊寬敞，環境優美。在餐廳用餐之前或之後，在我們的酒吧放鬆一下或在我們的遊戲室放鬆一下。為了與我們著名的牛排相得益彰，我們經驗豐富的主廚在新年推出了一系列誘人的亞洲融合菜餚，採用新鮮的當地時令食材烹製而成",
			"priceRange": "$100-300"
		},
		{
			"name": "Cobber Coffee",
			"type": "咖啡☕️",
			"address": "觀塘鴻圖道33號萬年工業大廈3樓B室",
			"image": "https://static7.orstatic.com/userphoto2/photo/19/101G/074AGADAB8CFB39A322BC3px.jpg",
			"popublarity": 41,
			"lat": 22.312633176323338,
			"lng": 114.2240419234247,
			"Intro": "主要供應小食、沙律、多士及意粉等，招牌是即叫即做的日式梳乎厘班戟，有榛子朱古力香蕉、綠茶紅豆及芒果百香果等不同口味，班戟充滿空氣感又有蛋香。",
			"priceRange": "$70-200"
		}
	],
	"深水埗區": [{
			"name": "威記粥品",
			"type": "粥店🥣",
			"district": "深水埗區",
			"address": "深水埗汝州街226號地下C號舖",
			"image": "https://poi-pic.cdn.bcebos.com/001/046_f7945dd6ce36e0a411582fedafbd5723.jpeg",
			"popularity": 20,
			"lat": 22.329948243565777,
			"lng": 114.16173296291886,
			"Intro": "提供數十種不同粥種。用料豐富,價格便宜,適合老小聚餐。",
			"priceRange": "$20-60"
		},
		{
			"name": "十常八九",
			"type": "甜品店🍮",
			"district": "深水埗區",
			"address": "深水埗黃竹街2號地舖",
			"image": "https://www.getreadyhk.com/images/stories/blog/mrmrsfoodhk/sapsann/sapsann2.JPG",
			"popularity": 39,
			"lat": 22.326618413399142,
			"lng": 114.16369792943368,
			"Intro": "裝潢以木系,柔和風格組成,是文青的愛好地。食品大多以小食作為買點,如和栗蒙布朗,十常吐司,玄米抹茶鮮奶等等。",
			"priceRange": "$40-90"
		},
		{
			"name": "雪山冰廳",
			"type": "港式茶餐廳🍛",
			"district": "深水埗區",
			"address": "深水埗青山道62號",
			"image": "https://lh3.googleusercontent.com/p/AF1QipO1cU4X_hTmtA5bxOTaGTWIV_1q1NzD3HkK6Rew=w768-h768-n-o-v1",
			"popularity": 45,
			"lat": 22.3340914078124,
			"lng": 114.16211574913885,
			"Intro": "位於深水埗有60年多年歷史的茶餐廳，提供各式懷舊茶餐廳菜式，包括芝蛋牛肉漢堡、避風塘生炸髀等，除了港式口味之外，餐廳亦提供海南雞飯、南洋咖喱等菜式。",
			"priceRange": "$60-140"
		},
		{
			"name": "康瑞甜品",
			"type": "甜品店🍮",
			"district": "深水埗區",
			"address": "深水埗荔枝角道323號地舖",
			"image": "https://static6.orstatic.com/userphoto2/photo/20/1KZF/0B97ZPCE197AAE23C37760px.jpg",
			"popularity": 21,
			"lat": 22.32863159259183,
			"lng": 114.16021515573043,
			"Intro": "售有只需二十大元的特色仙草百配，用料充足，另外還有仙草西米奶露、湯丸、鹹肉糭及其他中式糖水。",
			"priceRange": "$20-50"
		},
		{
			"name": "御品・千之味",
			"type": "日式料理🍜",
			"district": "深水埗區",
			"address": "深水埗荔枝角道390C號利聯益大廈地舖",
			"image": "https://cdn.hk01.com/di/media/images/cis/5dc11f5723ab170deb414495.jpg/x-PI9NBDbSd_YqFKPyS3ultpDBUWFS40Y-0Gk2PtBpM?v=w1920",
			"popularity": 12,
			"lat": 22.329660930028297,
			"lng": 114.15947280618525,
			"Intro": "餐廳主打日本料理，當中以丼飯、刺身最為出色，選料新鮮、份量足料。設有到會服務，提供不同份量的壽司特盛，適合與多人的公司聚會或家庭聚會。",
			"priceRange": "$50-200"
		}
	],
	"黃大仙區": [{
			"name": "健康齋廚",
			"type": "素食🥑",
			"district": "黃大仙區",
			"address": "黃大仙飛鳳街34號地舖",
			"image": "https://static6.orstatic.com/userphoto2/photo/21/1M40/0BH8IP7DDD47379C766294px.jpg",
			"popularity": 54,
			"lat": 22.34381728227839,
			"lng": 114.19641991193677,
			"Intro": "黃大仙健康齋廚 用料多菜少油,高健康，菜式多元化食得出大廚手工，有湯有飯有菜的全日套餐只賣HK$50,美中不足是衛生較差。",
			"priceRange": "$40-90"
		},
		{
			"name": "韓閣",
			"type": "韓式料理🥘",
			"district": "黃大仙區",
			"address": "黃大仙龍翔道136號黃大仙中心北館地下G06E-G06G號鋪",
			"image": "https://static6.orstatic.com/userphoto2/photo/23/1NZO/0BULQTBCEEE316DDA9F0B1sx.jpg",
			"popularity": 30,
			"lat": 22.34147991512112,
			"lng": 114.19442237276483,
			"Intro": "專營韓國湯品，炸雞，料理。每樣食品即叫即整，用料地道，心機小店。常辦活動,能偶然品嚐特別小菜或減價。",
			"priceRange": "$100-250"
		},
		{
			"name": "亞萊泰",
			"type": "泰國菜🍲",
			"district": "黃大仙區",
			"address": "竹園龍翔道136號",
			"image": "https://ifoodcourt.com.hk/wp-content/uploads/2016/09/aroithai.jpg",
			"popularity": 34,
			"lat": 22.34192206405768,
			"lng": 114.19291960112571,
			"Intro": "地道泰國菜餐廳，食物出品大多高評價,小菜如冬陰功湯、海南雞、海鮮炒飯,上菜快速，侍應都快手有禮。",
			"priceRange": "$50-150"
		},
		{
			"name": "大街小館",
			"type": "甜品店🍮",
			"district": "黃大仙區",
			"address": "黃大仙銀鳳街16號地舖",
			"image": "https://static7.orstatic.com/userphoto2/photo/Z/S7W/05KO7ED974F27B0B9DA9A7px.jpg",
			"popularity": 72,
			"lat": 22.34437354485754,
			"lng": 114.19802840693453,
			"Intro": "地方近市區,招牌椰皇蛋白燉桃膠深得眾多食客好評,員工有禮。",
			"priceRange": "$50-100"
		},
		{
			"name": "凱泰船屋",
			"type": "泰國菜🍲",
			"district": "黃大仙區",
			"address": "黃大仙竹園道15號竹園廣場竹園街市地下93號舖",
			"image": "https://resource02.ulifestyle.com.hk/ulcms/content/article/image/w600/uhk/event/201812/20181205184958_1_img-1886.JPG",
			"popularity": 28,
			"lat": 22.34505306021495,
			"lng": 114.19435047184683,
			"Intro": "店舖主要在夜宵開啟。招牌自制船麵湯雞滑飯香既海南雞飯 宵夜不可無既串燒價格平民。",
			"priceRange": "$40-70"
		}
	],
	"油尖旺區": [{
			"name": "滾得棧",
			"type": "中菜館🍚",
			"district": "油尖旺區",
			"address": "油麻地砵蘭街39-41號順好樓地下A-B號舖",
			"image": "https://ifoodcourt.com.hk/wp-content/uploads/2017/03/Hot-in-A-Pot.jpg",
			"popularity": 67,
			"lat": 22.31331638428256,
			"lng": 114.16977196535694,
			"Intro": "深井無人不曉的打邊爐名店，最近分店進駐港島區，質素跟深井店一樣出色，更有午市供應一嚐特式點心。",
			"priceRange": "$200-400"
		},
		{
			"name": "ATUM Restaurant",
			"type": "西餐🥩",
			"district": "油尖旺區",
			"address": "尖沙咀河內道18號K11購物藝術館1樓101B號舖",
			"image": "https://static8.orstatic.com/userphoto/photo/G/CNL/02HZRZ8A6F0381AE833212px.jpg",
			"popularity": 76,
			"lat": 22.29867849219457,
			"lng": 114.17445115312196,
			"Intro": "除了餐廳招牌藝術式甜品外，更有提供午餐、下午茶以及晚餐美饌，秉承ATUM的風格(有藝術感既Tea Set)及創新的精神，為客人帶來驚喜。",
			"priceRange": "$150-300"
		},
		{
			"name": "Yadllie Plate 야들리애플래이트",
			"type": "韓式料理🥘",
			"district": "油尖旺區",
			"address": "旺角西洋菜街1號兆萬中心11樓",
			"image": "https://static7.orstatic.com/userphoto2/photo/24/1O72/0BW26YB8D001A675F3AD26px.jpg",
			"popularity": 34,
			"lat": 22.315794860185424,
			"lng": 114.17058381950352,
			"Intro": "主打手工炸雞，採用韓國濟州島栽培的新鮮蔬菜及廿多種天然材料混製秘製醬汁，及韓國空運到港的韓國雞，口感鮮嫩。價格公道招牌菜 Yadllie 原味炸雞 驚喜二重奏 火山岩漿芝士雞 淑女辣醬炒年糕。",
			"priceRange": "$100-200"
		},
		{
			"name": "麥當勞",
			"type": "快餐店🍔",
			"district": "油尖旺區",
			"address": "油麻地彌敦道518-520號彌敦行地下A及C舖",
			"image": "https://p1.591.com.hk/house/active/2015/04/30/143040326903998405_600x450.jpg",
			"popularity": 80,
			"lat": 22.31242337776711,
			"lng": 114.17099493956214,
			"Intro": "香港最為人熟知的快餐店之一,出餐快,價格公道。",
			"priceRange": "$40-90"
		},
		{
			"name": "翡翠茶餐廳",
			"type": "港式茶餐廳🍛",
			"district": "油尖旺區",
			"address": "油麻地吳松街11號地舖",
			"image": "https://cdn.feehk.com/icon/static5-restaurant/userphoto2/photo/X/Q65/0563NW0743A8B07DCF1F38lv.jpg",
			"popularity": 60,
			"lat": 22.30828753432888,
			"lng": 114.17084323947924,
			"Intro": "比起傳統茶餐廳,午市有提供蒸鯇魚,氣氛溫馨舒適，是一個適合家庭和朋友聚會的用餐地點。偏好港式魚菜可推薦.",
			"priceRange": "$40-80"
		}
	],
	"離島區": [{
			"name": "The Upper Deck",
			"type": "西餐🥩",
			"district": "離島區",
			"address": "東涌怡東路9號灣景薈1樓101號舖",
			"image": "https://www.theupperdeck.hk/wp-content/uploads/2021/05/interior-3.jpg",
			"popularity": 37,
			"lat": 22.29547545474008,
			"lng": 113.94561554525303,
			"Intro": "位於東涌的扒房，餐廳地方闊落，西式裝修摩登。主打扒餐和意粉，並提供各類啤酒和鸡尾酒。",
			"priceRange": "$200-350"
		},
		{
			"name": "茶山 Mtea",
			"type": "甜品店🍮",
			"district": "離島區",
			"address": "長洲新興街45號地舖",
			"image": "http://www.hkppltravel.com/wp-content/uploads/2022/02/%E8%8C%B6%E5%B1%B1-mtea-7-1024x1024.jpg",
			"popularity": 39,
			"lat": 22.20992663808273,
			"lng": 114.02875448297966,
			"Intro": "用料豐富,童叟無欺,好評如呂宋芒牛角窩夫,香蕉朱古力牛角窩夫等等,店員親切有禮",
			"priceRange": "$30-60"
		},
		{
			"name": "正斗粥麵專家",
			"type": "粥店🥣",
			"district": "離島區",
			"address": "東涌達東路20號東薈城名店倉3樓332號舖",
			"image": "https://static5.orstatic.com/userphoto/doorphoto/0/R0/005C4CB06B120C0C4AB5ABlv.jpg",
			"popularity": 42,
			"lat": 22.290046813650456,
			"lng": 113.93988610468828,
			"Intro": "店舖裝潢華麗。菜餚大小童叟無欺。主打雲吞麵、粥、乾炒牛河等，吸引不少遊客慕名而來",
			"priceRange": "$50-100"
		},
		{
			"name": "樂天皇朝",
			"type": "中菜館🍚",
			"district": "離島區",
			"address": "東涌達東路20號東薈城名店倉3樓326A號舖",
			"image": "https://media-cdn.tripadvisor.com/media/photo-s/13/64/de/ea/diner.jpg",
			"popularity": 41,
			"lat": 22.28966224983869,
			"lng": 113.9405461526897,
			"Intro": "來自新加坡的中菜館，主打粵菜及滬菜。招牌八色小籠包，外皮採用純天然色素製作，八種味道有創意之餘，又可安心享用。",
			"priceRange": "$70-150"
		},
		{
			"name": "是蛋",
			"type": "西餐🥩",
			"district": "離島區",
			"address": "長洲北社街49號前座地舖",
			"image": "https://www.getreadyhk.com/images/stories/blog/mrmrsfoodhk/sidan/sidan2.JPG",
			"popularity": 38,
			"lat": 22.211180132830194,
			"lng": 114.02822679670685,
			"Intro": "以雞蛋為主題既小店cafe,中意食蛋既 去長洲一定唔可以錯過呢間小店,部分菜可選是否流心,招牌菜:土製炸蛋 ,真·卡邦尼意粉配煎薯餅,松露是蛋炒配煎薯餅炸蛋。",
			"priceRange": "$50-100"
		}
	],
	"葵青區": [{
			"name": "嘉寶漢堡",
			"type": "快餐店🍔",
			"district": "葵青區",
			"address": "葵涌青山公路葵涌段499號嘉寶大廈地下A&B號舖",
			"image": "https://ifoodcourt.com.hk/wp-content/uploads/2019/04/KABO-BURGER.jpg",
			"popularity": 36,
			"lat": 22.368308697148297,
			"lng": 114.13369322216764,
			"Intro": "人氣港式漢堡包餐廳，其漢堡扒以牛肋條切碎而成，並以慢煮方法烹調，令肉質軟腍多汁，另外亦不時推出新口味漢堡。",
			"priceRange": "$50-70"
		},
		{
			"name": "金林閣",
			"type": "自助餐🍽",
			"district": "葵青區",
			"address": "葵涌和宜合道119號荃灣絲麗酒店2樓",
			"image": "https://www.silkahotels.com/media/images/properties/hong-kong/hong-kong/silka-tsuen-wan/dining//marcos_buffet_01_734_768x479.jpg",
			"popularity": 42,
			"lat": 22.36920360461243,
			"lng": 114.13890716620972,
			"Intro": "號稱全港最便宜的自助餐 中西美食自助午餐$78.- 中式點心一律$28.- （全日供應） 火鍋燒烤自助晚餐$138.-（星期日-星期四） 火鍋燒烤及懐舊音樂自助晚餐$168.-（星期五-星期六）",
			"priceRange": "$50-170"
		},
		{
			"name": "名苑酒家",
			"type": "酒樓🥢",
			"district": "葵青區",
			"address": "葵涌葵昌路72-76號活@KCC 9樓",
			"image": "https://media-cdn.tripadvisor.com/media/photo-s/0b/aa/a8/a6/caption.jpg",
			"popularity": 41,
			"lat": 22.362552610944185,
			"lng": 114.1322617255573,
			"Intro": "酒樓嘅點心放題質素好評,價錢公道,但繁忙時段服務素質會有所下降。",
			"priceRange": "$70-300"
		},
		{
			"name": "燒肉一番",
			"type": "日式料理🍜",
			"district": "葵青區",
			"address": "葵涌葵義路2-10號新葵芳花園好爵中心1樓",
			"image": "https://static8.orstatic.com/userphoto2/photo/1Z/1KLC/0B6FS71F6A4F932C62EE38px.jpg",
			"popularity": 39,
			"lat": 22.357475673801144,
			"lng": 114.12877125886376,
			"Intro": "一人燒肉店，低至$38就可以歎到燒肉、白飯、湯及前菜，肉類有齊牛小排、牛舌、牛板腱、封門柳等熱門款式，食肉獸必不可錯過。開幕期間更會多送50克肉或小食，非常抵食。",
			"priceRange": "$40-90"
		},
		{
			"name": "龍川上海料理",
			"type": "中菜館🍚",
			"district": "葵青區",
			"address": "葵涌光輝圍21號昌發樓地下",
			"image": "https://ifoodcourt.com.hk/wp-content/uploads/2021/08/Long-Chuan.jpg",
			"popularity": 37,
			"lat": 22.36786364103594,
			"lng": 114.13265059709117,
			"Intro": "地方開闊。價格便宜,性價比高,每日新鮮食材，自家足料酸辣湯,招牌小籠包。擔擔麵。各式自家製點心。",
			"priceRange": "$40-80"
		}
	],
	"北區": [{
			"name": "米子燒肉家",
			"type": "日式料理🍜",
			"district": "北區",
			"address": "粉嶺新運路33號粉嶺中心地下145-146號舖",
			"image": "https://static8.orstatic.com/userphoto2/photo/1S/1EXZ/0A29N75686E84FADC72B61px.jpg",
			"popularity": 38,
			"lat": 22.367869557065035,
			"lng": 114.13264854233202,
			"Intro": "價錢合理,最平$48都有100g 燒肉可以食，揀返想食嘅份量同埋肉類，跟餐仲有湯小菜同埋白飯，都配有三款醬料。餐廳環境都算乾淨，鋪面都好大，除咗燒肉，都仲有好多唔同燒肉飯可以食。",
			"priceRange": "$50-120"
		},
		{
			"name": "一鳴屋台料理",
			"type": "日式料理🍜",
			"district": "北區",
			"address": "上水馬會道180號",
			"image": "https://ifoodcourt.com.hk/wp-content/uploads/2019/03/Amazing-Yatai-Izakaya.jpg",
			"popularity": 41,
			"lat": 22.50424688447438,
			"lng": 114.13033476719268,
			"Intro": "裝飾充滿日式風格。充滿不同的日式食品包括：拉麵、串燒、丼、壽司、刺身和便當等等！",
			"priceRange": "$50-150"
		},
		{
			"name": "MOS Burger",
			"type": "快餐店🍔",
			"district": "北區",
			"address": "粉嶺新運路33號粉嶺中心地下158A號舖",
			"image": "https://www.wayip.com.hk/wp-content/uploads/2021/08/FL_MosBurger_006-e1629885575797.jpg",
			"popularity": 45,
			"lat": 22.49111723764329,
			"lng": 114.14128402319723,
			"Intro": "香港最為人熟知的快餐店之一,出餐快,價格公道。",
			"priceRange": "$60-80"
		},
		{
			"name": "荳子冰室",
			"type": "港式茶餐廳🍛",
			"district": "北區",
			"address": "上水智昌路3號上水中心2樓2038,2038B,2052號舖",
			"image": "https://pbs.twimg.com/media/E8vYrw7VIAYbB5q.jpg:large",
			"popularity": 39,
			"lat": 22.309331033444845,
			"lng": 114.26192609620477,
			"Intro": "文青風咖啡館荳子的姐妹店，走懷舊港式冰室路線，食物選擇多元化。店內更設自家餅房，全日供應新鮮出爐蛋撻麵包",
			"priceRange": "$50-100"
		},
		{
			"name": "丸和食堂",
			"type": "日式料理🍜",
			"district": "北區",
			"address": "上水馬會道170號地舖",
			"image": "https://static6.orstatic.com/userphoto2/photo/12/UMW/061UUDd7ee6a5a18122dd0lv.jpg",
			"popularity": 40,
			"lat": 22.50444144576304,
			"lng": 114.1301769318524,
			"Intro": "裝飾和餐具充滿日式風格,餐廳內播放日文歌。以各種不同風格的日式美食作招牌,麵量以一名成年男性作標準。",
			"priceRange": "$50-100"
		}
	],
	"西貢區": [{
			"name": "Little Cove Espresso",
			"type": "西餐🥩",
			"district": "西貢區",
			"address": "西貢西貢海旁廣場兆日樓地下1-2號舖",
			"image": "https://static7.orstatic.com/userphoto2/photo/T/MZS/04JIIYAF32EEC21A40A22Fpx.jpg",
			"popularity": 42,
			"lat": 22.38099548743013,
			"lng": 114.27337565873374,
			"Intro": "裝修以木系純白色為主調，令人感覺平靜舒適，如置身海外度假的感覺店內供應各式特調咖啡、多士、蛋糕、沙律及輕食，必試玫瑰法式多士。",
			"priceRange": "$80-200"
		},
		{
			"name": "越華茶餐廳",
			"type": "港式茶餐廳🍛",
			"district": "西貢區",
			"address": "西貢福民路16-17號金寶閣地下",
			"image": "https://pr1.nicelocal.hk/sALi8H8d1Esq0shWW74BQw/587x440,q85/4px-BW84_n0QJGVPszge3NRBsKw-2VcOifrJIjPYFYkOtaCZxxXQ2f7k_fltUrDFPUhlR0lEkA2NYFRW2stHIZGN4cVm8XrH3PdqSaugw68XXJa7RQuS7A",
			"popularity": 38,
			"lat": 22.381238214985462,
			"lng": 114.27371270213197,
			"Intro": "門面及內室較為簡陋,餐也較為簡單,使人不用多作思考也能找到想食的。",
			"priceRange": "$30-80"
		},
		{
			"name": "西貢餐室",
			"type": "粥店🥣",
			"district": "西貢區",
			"address": "西貢西貢大街22號地下",
			"image": "https://www.hongkongd.com/wp-content/uploads/2020/12/Sai-Kung_Eat_Sai-Kung-restaurant_1.jpg",
			"popularity": 35,
			"lat": 22.379679282203238,
			"lng": 114.27083026193579,
			"Intro": "餐室門面和店內環境都較為懷舊,價格便宜,用料豐富。",
			"priceRange": "$25-60"
		},
		{
			"name": "泰道 Thai Dao",
			"type": "泰國菜🍲",
			"district": "西貢區",
			"address": "西貢大網仔路沙下村9號地舖",
			"image": "https://i0.wp.com/yfl-kelvin.com/wp-content/uploads/2017/06/20170610_125354020_ios.jpg?ssl=1",
			"popularity": 40,
			"lat": 22.388576605311943,
			"lng": 114.27597766374865,
			"Intro": "餐廳設於大網仔海灘岸邊，設室內及室外座位。主打坊間少見的泰北菜，如泰式香燒雞、香茅三文魚鮫等。菜式全由泰國廚師主理，而香料亦專程由清邁等地運至。",
			"priceRange": "$150-300"
		},
		{
			"name": "金山粥店",
			"type": "粥店🥣",
			"district": "西貢區",
			"address": "西貢西貢正街21號地舖",
			"image": "https://had18.huluhk.org/uploadedFile/19932209201527563001.jpg",
			"popularity": 39,
			"lat": 22.379925363547287,
			"lng": 114.27063752073232,
			"Intro": "街坊粥店，粥底火喉足，油器在店中即炸，店鋪只開早市，食品新鮮。",
			"priceRange": "$30-70"
		}
	],

	"沙田區": [{
			"name": "香港永年車仔麵茶冰廳",
			"type": "港式茶餐廳🍛",
			"district": "沙田區",
			"address": "沙田沙田正街18號新城市廣場L1樓113號舖",
			"image": "https://static7.orstatic.com/userphoto2/photo/19/ZS9/072GXE2848B12C6E88F49Epx.jpg",
			"popularity": 42,
			"lat": 22.38182253196264,
			"lng": 114.18900203227975,
			"Intro": "結合車仔麵及冰廳的概念店，主力推介男神及女神麵，前者有多款牛內臟，後者則有花膠及豬手。",
			"priceRange": "$80-130"
		},
		{
			"name": "Nara Thai Cuisine",
			"type": "泰國菜🍲",
			"district": "沙田區",
			"address": "沙田沙田正街18號新城市廣場一期5樓507號舖",
			"image": "https://static8.orstatic.com/userphoto2/photo/1T/1G45/0AALMFB9E37370E3571122px.jpg",
			"popularity": 40,
			"lat": 22.382751948954578,
			"lng": 114.18848703733603,
			"Intro": "新派泰菜餐廳，在曼谷連續10年被當地雜誌 Thailand Tatlet 票選為泰國最佳食府。摩登木系裝潢，環境寬敞。",
			"priceRange": "$100-150"
		},
		{
			"name": "入素 Green Entrance",
			"type": "素食🥑",
			"district": "沙田區",
			"address": "沙田石門安群街3號京瑞廣場1期2樓237號舖",
			"image": "https://1.bp.blogspot.com/-z7O6cg62D1I/Xp7yaS6f6jI/AAAAAAAAsts/UxoSpk9I3AMcckaJ60y41CVat1rlQfkvACLcBGAsYHQ/s1600/entrance01.JPG",
			"popularity": 35,
			"lat": 22.38849139744296,
			"lng": 114.2080776380973,
			"Intro": "裝潢清新簡潔，供應西式及亞洲風味素食的餐廳；自家調製醬汁，更設有不同種類的素食餐單，選擇多元化。",
			"priceRange": "$50-90"
		},
		{
			"name": "滿記甜品",
			"type": "甜品店🍮",
			"district": "沙田區",
			"address": "沙田沙田正街2-8號",
			"image": "https://ak-d.tripcdn.com/images/10090y000000lzk8v8F0A_C_760_506_R5.jpg?proc=source%2ftrip",
			"popularity": 38,
			"lat": 22.38226746063891,
			"lng": 114.18799628174533,
			"Intro": "早期一間家庭式糖水店發展成現今的連鎖式甜品店，深受本地顧客尤其香港年青新一代的愛戴，更獲國內及外地旅客的推崇及讚賞。『滿記甜品』已成為一個『甜品品牌』。",
			"priceRange": "$40-80"
		},
		{
			"name": "星海薈﹒譽宴",
			"type": "中菜館🍚",
			"district": "沙田區",
			"address": "沙田安平街1號香港沙田萬怡酒店1樓",
			"image": "https://static8.orstatic.com/userphoto2/photo/1H/16IN/08ECK3A156AFE41131CBE9px.jpg",
			"popularity": 41,
			"lat": 22.390710690968053,
			"lng": 114.20648676796019,
			"Intro": "富麗堂皇的中菜酒家，集團式經營，可作婚宴及宴會場地，供應高質點心及粵菜。",
			"priceRange": "$200-300"
		}
	],
	"大埔區": [{
			"name": "喫茶ちょうぼ Choubo Kissaten",
			"type": "日式料理🍜",
			"district": "大埔區",
			"address": " 大埔安邦路8-10號大埔超級城B區2樓276號舖",
			"image": "https://static8.orstatic.com/userphoto2/photo/22/1N79/0BOZM34C629AE74E7AD380px.jpg",
			"popularity": 38,
			"lat": 22.45162308292124,
			"lng": 114.17087919375652,
			"Intro": "大埔新開的一間Cafe，裝潢是模仿日本洋食居，加上爆餡流心蛋包飯",
			"priceRange": "$100-150"
		},
		{
			"name": "WM Café & Bar",
			"type": "西餐🥩",
			"district": "大埔區",
			"address": "大埔安慈路2號八號花園地下20號舖",
			"image": "https://static8.orstatic.com/userphoto2/photo/19/1029/074G2V56A222DEEE97511Dpx.jpg",
			"popularity": 42,
			"lat": 22.452321727791094,
			"lng": 114.1671865210971,
			"Intro": "多款高質西餐，推薦即叫即做脆卜卜農夫包。裝潢採用啡磚式外牆,柔和且使人安心。",
			"priceRange": "$50-80"
		},
		{
			"name": "一鳴拉麵",
			"type": "日式料理🍜",
			"district": "大埔區",
			"address": "大埔運頭街20-26號廣安大廈地下E舖",
			"image": "https://ifoodcourt.com.hk/wp-content/uploads/2019/03/Amazing-Yatai-Izakaya.jpg",
			"popularity": 40,
			"lat": 22.44706650564033,
			"lng": 114.16857253434304,
			"Intro": "裝飾和餐具充滿日式風格拉麵主要有五款湯底，麵條及麵質均可自由選擇，另有各類小食提供。",
			"priceRange": "$50-100"
		},
		{
			"name": "八妹雞煲",
			"type": "中菜館🍚",
			"district": "大埔區",
			"address": "大埔舊墟直街4-20號美新大廈地下A1號舖",
			"image": "https://ak-d.tripcdn.com/images/1i6512224snx2fwg00321.jpg?proc=source/trip",
			"popularity": 35,
			"lat": 22.45346506357175,
			"lng": 114.1649302939504,
			"Intro": "雞煲火鍋專門店，用料新鮮，更提供即叫即炸的自家製響鈴，香脆可口。",
			"priceRange": "$100-170"
		},
		{
			"name": "金鷺湖",
			"type": "中菜館🍚",
			"district": "大埔區",
			"address": "大埔紅林路2號白鷺湖互動中心地下A號舖",
			"image": "https://lh3.googleusercontent.com/-Bj-IZCh9s0M/YR4g4PR5kKI/AAAAAAAAAcc/ls9lUA6n1LAxBX-3GsxfWWl-YRjJrLKgCLcBGAsYHQ/w512-h640/image.png",
			"popularity": 41,
			"lat": 22.435942368929297,
			"lng": 114.18893191995792,
			"Intro": "大廚用現代手法重新演繹粵菜， 將創意融入傳統食材，製作一道道精緻菜式,地方大，枱與枱之間有足夠空間，職員個個都很有禮貌，主動執枱。餐牌上只有十八款點心。",
			"priceRange": "$150-350"
		}
	],
	"荃灣區": [{
			"name": "一．漢堡",
			"type": "快餐店🍔",
			"district": "荃灣區",
			"address": "荃灣西樓角路170-184號華都中心1樓41號舖",
			"image": "https://static5.orstatic.com/userphoto2/photo/20/1LO8/0BE4DOC3123EF06FFA8517px.jpg",
			"popularity": 30,
			"lat": 22.370965512248937,
			"lng": 114.12033831257219,
			"Intro": "店子不大，左邊有3張枱 餐牌選擇不多，包總括有牛，魚，雞三種 招牌菜 和牛漢堡黑松露芝士薯條熱咖啡。",
			"priceRange": "$50-90"
		},
		{
			"name": "牛陣",
			"type": "自助餐🍽",
			"district": "荃灣區",
			"address": "荃灣青山公路荃灣段398號愉景新城3樓3002號舖",
			"image": "https://1.bp.blogspot.com/-CZosUmez37g/VpyhbDrGpEI/AAAAAAAAPSA/oCc5zhgAo_g/w1200-h630-p-k-no-nu/PA266386.JPG",
			"popularity": 12,
			"lat": 22.376353055077526,
			"lng": 114.11209697724293,
			"Intro": "提供日本涮涮鍋套餐，並以優質日本產黑毛和牛為主題，當中精選多款稀有部位，配以餐廳推薦享用步驟，讓你品嚐新的涮涮鍋體驗。",
			"priceRange": "$100-250"
		},
		{
			"name": "麻辣風雲",
			"type": "中菜館🍚",
			"district": "荃灣區",
			"address": "荃灣海壩街108-114號荃碧大廈1樓",
			"image": "https://static7.orstatic.com/userphoto2/photo/1A/10QM/0799F22ADBDF7BB067C15Fpx.jpg",
			"popularity": 31,
			"lat": 22.371438677025193,
			"lng": 114.11620098925006,
			"Intro": "餐廳主打各式正宗川菜，選用來自四川的香料，菜式加入大量辣椒，如酸菜魚、四川水煮牛等，適合愛辣之人。",
			"priceRange": "$150-300"
		},
		{
			"name": "牛牛日式火鍋放題",
			"type": "自助餐🍽",
			"district": "荃灣區",
			"address": "荃灣大河道100號海之戀商場1樓1010號舖",
			"image": "https://static8.orstatic.com/userphoto2/photo/1L/19B5/08Y79V6D2BC1DA2BE63443px.jpg",
			"popularity": 65,
			"lat": 22.36809602103841,
			"lng": 114.11065886495774,
			"Intro": "放題主打不同產地及部位的牛肉，配搭其他肉類、海鮮及日式料理，菜品多達逾90款；特色湯底則有香辣及清潤口味；而午市更供應日式定食。",
			"priceRange": "$100-300"
		},
		{
			"name": "圓玄素菜館",
			"type": "素食🥑",
			"district": "荃灣區",
			"address": "荃灣三疊潭老圍路圓玄學院",
			"image": "https://0.share.photo.xuite.net/sunny1948/1028971/13571904/705125425_m.jpg",
			"popularity": 10,
			"lat": 22.383560037776515,
			"lng": 114.12301372915809,
			"Intro": "餐廳己有三十多年歷史招牌菜 ：脆皮荔蓉魚、碧綠鮮竹件、百花粟米羹、羅漢上素、六合菜、八寶齋 ",
			"priceRange": "$40-90"
		}
	],
	"屯門區": [{
			"name": "大力齋廚",
			"type": "素食🥑",
			"district": "屯門區",
			"address": "屯門石排頭路5號偉昌工業中心A座",
			"image": "https://3.bp.blogspot.com/-18_4F1wXdcU/WjZ_-FQiKWI/AAAAAAAAV9M/AbNbIDER_xQshny8iZk9Y1NBVb1RsXmRwCLcBGAs/w1200-h630-p-k-no-nu/PA043919.JPG",
			"popularity": 15,
			"lat": 22.40060963901786,
			"lng": 113.96836900027029,
			"Intro": "份量足夠,廚師經驗豐富,店舖風格偏复古。",
			"priceRange": "$50-100"
		},
		{
			"name": "花火漁屋",
			"type": "日式料理🍜",
			"district": "屯門區",
			"address": "屯門鳴琴路1號山景商場地下123A號舖",
			"image": "https://static6.orstatic.com/userphoto2/photo/1V/1HB6/0AJ3JTF58AF4CB230D8281px.jpg",
			"popularity": 31,
			"lat": 22.396509888746348,
			"lng": 113.9669196740437,
			"Intro": "花火洋食的副線，主打親民價日式料理，更從日本直送魚鮮到港，供應壽司、丼飯、小食等菜餚。餐廳採用日式木系裝潢，予人簡約舒適的感覺。",
			"priceRange": "$100-250"
		},
		{
			"name": "Terrace in seaside",
			"type": "韓式料理🥘",
			"district": "屯門區",
			"address": "屯門屯順街1號屯門市廣場一期UG樓9-12號舖",
			"image": "https://static8.orstatic.com/userphoto2/photo/1R/1EAO/09XNWZF90DDF48837CB5BCpx.jpg",
			"popularity": 12,
			"lat": 22.392749561797377,
			"lng": 113.9769031037674,
			"Intro": "香港分店以韓國總店為藍本，室內裝潢以簡約白與大地灰兩種顏色作主調，店門前更擺放了 Terrace in seaside招牌柑橘樹，給予人 一種舒適輕鬆卻帶點活潑感覺！,各種甜品都令人感到非常清新。",
			"priceRange": "$100-180"
		},
		{
			"name": "星小宴",
			"type": "酒樓🥢",
			"district": "屯門區",
			"address": "屯門青山公路1號黃金海岸商場地下R1號舖",
			"image": "https://static7.orstatic.com/userphoto2/photo/1U/1GLR/0AE2U2B5FD5B2E8FE7F457px.jpg",
			"popularity": 35,
			"lat": 22.37226683878024,
			"lng": 113.99218049683034,
			"Intro": "其宗旨是為客人在渡假氣氛下送上最精緻的美食佳餚。店內以歐陸風格裝潢，設有室內座位及戶外座位。客人除了可以享受精緻美饌，也可以飽覽海天一色的絕佳美景。",
			"priceRange": "$100-200"
		},
		{
			"name": "金記冰室",
			"type": "港式茶餐廳🍛",
			"district": "屯門區",
			"address": "屯門屯隆街2號屯門時代廣場北翼地下8, 18-19號舖",
			"image": "https://static7.orstatic.com/userphoto2/photo/1K/18WQ/08VCS662697ECE6DC66D0Epx.jpg",
			"popularity": 11,
			"lat": 22.393121331932463,
			"lng": 113.97567281573228,
			"Intro": "金記冰室己有50年的歲月,餐牌上堅持深受愛戴的保爾牛肉汁、唂咕等傳統，亦不斷創新迎合新一代的口味，加入健康、創意等新派飲食題材",
			"priceRange": "$50-100"
		}
	],
	"元朗區": [{
			"name": "大家樂 Cafe de Coral",
			"type": "快餐店🍔",
			"district": "元朗區",
			"address": "元朗朗日路8號形點二期L2層A217號舖",
			"image": "https://www.cafedecoral.com/eng/group-business/quick-service-restaurant/images/2.0_cdchk01.jpg",
			"popularity": 10,
			"lat": 22.445589881126878,
			"lng": 114.03423272768009,
			"Intro": "香港廣為人知的大型連鎖茶餐廳,焗豬扒飯/意粉更是無人不知",
			"priceRange": "$40-120"
		},
		{
			"name": "野川拉麵の深燒食堂",
			"type": "日本菜",
			"district": "元朗區",
			"address": "元朗又新街40-48號榮豐大廈地下B號舖",
			"image": "https://www.getreadyhk.com/images/stories/blog/foodieyanyannn/yachunramen/img_0692.JPG",
			"popularity": 41,
			"lat": 22.44242199058216,
			"lng": 114.03096697952215,
			"Intro": "餐廳主打各式日式料理，如串燒、刺身、拉麵、烏冬，單是拉麵便有逾十款口味。當中最多人推介「自家製叉燒拉麵」。",
			"priceRange": "$50-90"
		},
		{
			"name": "公車泰國餐廳",
			"type": "泰國菜🍲",
			"district": "元朗區",
			"address": "元朗西菁街2號興旺樓地下2-3號舖",
			"image": "https://www.eathowest.com/wp-content/uploads/2021/05/1-1024x536.png",
			"popularity": 51,
			"lat": 22.441978546174152,
			"lng": 114.02681546702263,
			"Intro": "公車泰國餐廳從泰語「Kong Che（泰語意思為：蝦）」取到靈感。以公車作主題，墨綠色為主色調，猶如在舊式火車車卡裡用餐，提供正宗的泰菜原味。",
			"priceRange": "$100-150"
		},
		{
			"name": "元朗新記",
			"type": "港式茶餐廳🍛",
			"district": "元朗區",
			"address": "元朗元朗安寧路21-35號鴻運樓地下7號舖",
			"image": "https://resource02.ulifestyle.com.hk/ublog/post/w960/202209/16640201088.jpg",
			"popularity": 10,
			"lat": 22.446031312011822,
			"lng": 114.0284617838394,
			"Intro": "涵蓋不同類型的菜餚，包括粥品、乳鴿、小炒等，當中以其「新記招牌雞粥」最為受歡迎，使用雞髀熬煮，口感較滑。",
			"priceRange": "$40-90"
		},
		{
			"name": "利苑酒家",
			"type": "酒樓🥢",
			"district": "元朗區",
			"address": "元朗元龍街9號形點1期1樓1130-1143號舖",
			"image": "https://cdn.hk01.com/di/media/images/dw/20210310/446352034916995072391685.jpeg/6Zus5JZM9i_2pYEXhcAea7Ul7s81gtMip2dFzadnRc0?v=w1920",
			"popularity": 13,
			"lat": 22.444893623903244,
			"lng": 114.03684875022928,
			"Intro": "利苑酒家提供大量套餐，當中有鮑魚﹑響螺﹑燕窩等菜式。酒家保持現有菜式的水準，並因應客人的口味加以改良及鑽研新菜，30年來創出上千款菜式。",
			"priceRange": "$200-350"
		}
	]

}
